~Version Information 
 VERS. 2.0                                         : CWLS Log ASCII Standard - VERSION 2.0
 WRAP. NO                                          : One line per depth step
#
~Well Information Block
#MNEM.UNIT           DATA                          : DESCRIPTION
#----.----          ---------                      : -----------
 STRT.F             0.0000                         : START DEPTH
 STOP.F             303.0000                       : STOP DEPTH
 STEP.F             0.2500                         : STEP LENGTH
 NULL.              -999.2500                      : NO VALUE
 WELL.  1407-E                                     : WELL
 FLD.               CARSTAIRS; D. BUSCHERT         : FIELD
 LOC.               EH-14-030-02W5                 : LOCATION
 PROV.              ALBERTA                        : PROVINCE
 STAT.              CANADA                         : STATE
 SRVC.ALBERTA       ENVIRONMENT                    : SERVICE COMPANY
 DATE.              1975/05/28                     : LOGDATE
 APIN.              442783                         : API NUMBER
 UWI.               EH-14-030-02W5                 : UNIQUE WELL ID
 DLAT.DEG            51.56920                      : Latitude north of equator
 DLON.DEG           114.17175                      : Longitude west of Greenwich
 GDAT.              NAD83                          : Horizontal datum
 EGND.F            3522.9661                       : Ground elevation +- 21.3
 UTMZ.                    11                       : UTM zone
 UTME.M               696001                       : UTM easting
 UTMN.M              5716915                       : UTM northing
 SID3.                442783                       : AENV GWRIS ID
 SNM3.   100EH1403002M500                          : DLS ID
#
~Parameter Information Block
#MNEM.UNIT           DATA                          : DESCRIPTION
#----.----          ---------                      : -----------
 EKB.F              0.0000                         : Kelly bushing
 EGL.F              0.0000                         : Ground level
 EDF.F              0.0000                         : Drilling floor
 EPD.F              0.0000                         : Permanent datum
 TD.F               303.0000                       : Total depth
 DATE.              28-MAY-1975                    : Date Logged [DD-MMM-YYYY]
 DD.F               305                            : Depth driller
 BLI.F              303                            : Bottom log interval
 BS1.IN             4.5                            : Bit size
 BSD1.F             305                            : Depth drilled with bit1
 DFT.               NATURAL                        : Type fluid in hole
 ENGI.              D. WYROSTOCK                   : Recorded By
 ORIG.              5" PRINT                       : Origin of data
 DICO.              Divestco                       : Digitizing Company
#
~Curve Information Block
#MNEM.UNIT             API CODE         Curve Description
#----.----           LG--CV-CL--M     : -----------------
 DEPT.F              00 001 00 00     : DEPTH BELOW REFERENCE
 RES1.OHMM           01 120 00 01     : RESISTIVITY
 RES2.OHMM           01 120 00 01     : RESISTIVITY
 GR.GAPI             30 310 01 01     : GAMMA RAY
#
~A DEPTH       RES1        RES2         GR
# ...
    128.25     78.3288     23.9794     99.9117
    128.50     77.0116     23.3808     92.4314
    128.75     73.4287     20.7342     86.4122
    129.00     61.7263     15.8573     91.1694
    129.25     54.5557     13.4399     95.3785
    129.50     56.8262     15.7847    102.6927
    129.75     66.0831     19.4299    113.8426
    130.00     70.6195     21.4884    117.8691
    130.25     72.1347     22.5321    119.9231
    130.50     71.7467     21.6116    123.3198
    130.75     67.3047     17.2292    128.6660
    131.00     61.3786     15.5680    135.0711
    131.25     57.9211     14.9649    130.8103
    131.50     56.8328     14.7398    123.9286
    131.75     56.9065     14.6658    119.3386
    132.00     57.4849     14.7431    112.7125
    132.25     57.6331     14.9715    107.2276
    132.50     57.6378     15.5022    106.2177
    132.75     58.1666     16.4864    103.2945
    133.00     61.0334     18.0187     97.8049
    133.25     67.1569     20.5584     91.7588
    133.50     72.4170     28.5151     86.3424
    133.75     74.8505     28.6698     77.0587
    134.00     76.1027     28.5790     69.9300
    134.25     77.7502     28.4388     66.7420
    134.50     75.4257     29.4837     67.8470
    134.75     73.1248     31.7236     70.1751
    135.00     74.5909     37.5329     70.9524
    135.25     81.4954     41.3180     69.8942
    135.50     86.9165     42.6576     67.3866
    135.75     93.7786     42.4381     64.6188
    136.00     97.5680     41.6276     62.3622
    136.25     97.1726     39.0897     64.0487
    136.50     95.2891     36.0753     65.9434
    136.75     94.3496     33.5512     70.3798
    137.00     93.2151     30.9940     74.3591
    137.25     91.1065     28.6835     79.6933
    137.50     88.7934     26.2456     84.1780
    137.75     84.8555     23.7958     87.8851
    138.00     71.4577     21.9633     93.0047
    138.25     66.0549     22.0508     99.8714
    138.50     66.1263     23.0485    100.8021
    138.75     66.7343     29.0737     99.0754
    139.00     68.4416     36.2560     91.7595
    139.25     70.9018     41.2463     81.0800
    139.50     76.8676     46.0854     69.4217
    139.75     88.1464     50.0175     62.4893
    140.00    103.0085     53.7228     59.0273
    140.25    113.7839     57.3526     56.8437
    140.50    119.9395     59.3194     55.2082
    140.75    125.2302     60.6060     54.1205
    141.00    129.1738     61.3635     52.6676
    141.25    132.3884     61.8186     51.3974
    141.50    133.5260     62.1226     50.1271
    141.75    133.9083     62.4266     49.2221
    142.00    134.8570     62.6550     48.4998
    142.25    136.1834     62.7334     50.8866
    142.50    135.6216     62.1992     53.7214
    142.75    134.4933     61.0395     55.6493
    143.00    131.8544     58.6176     57.3014
    143.25    128.8379     54.0524     59.1361
    143.50    125.0566     48.2074     62.4321
    143.75    117.3055     41.7671     66.2759
    144.00    104.4336     37.8256     68.8413
    144.25     96.0118     35.5227     72.1372
    144.50     93.1386     34.5807     74.8852
    144.75     93.2002     36.3209     76.5373
    145.00     94.2346     37.1039     78.5547
    145.25     94.8886     37.2823     79.2936
    145.50     94.9653     37.5545     78.1548
    145.75     96.0610     38.4766     75.1092
    146.00     99.6828     40.1663     70.0033
    146.25    101.8253     41.6407     66.7239
    146.50    103.9086     43.0639     64.9057
    146.75    105.6489     44.5033     63.8089
    147.00    107.7668     46.1945     61.4156
    147.25    109.4146     47.8414     59.3874
    147.50    114.0453     49.2205     57.8889
    147.75    118.5917     50.7516     61.7528
    148.00    121.2311     52.5788     66.6727
    148.25    123.0786     53.1725     64.6370
    148.50    118.8780     48.4878     62.7801
    148.75    107.1814     36.0178     66.5403
    149.00     93.6442     27.8957     69.9213
    149.25     86.1842     25.1155     75.2263
    149.50     80.6458     24.3605     79.4355
    149.75     75.4221     23.7794     82.7315
    150.00     72.5068     25.1040     84.9315
    150.25     76.5671     28.6033     79.1906
    150.50     80.0352     31.2809     73.7425
    150.75     84.0223     31.3446     71.9059
    151.00     85.1964     31.2706     69.6585
    151.25     85.3946     31.2724     66.6850
    151.50     85.4367     31.1017     66.3230
    151.75     85.5517     30.8281     69.3224
    152.00     85.6244     30.3200     71.8467
    152.25     85.8095     29.9146     73.6219
    152.50     84.9226     29.5383     74.5566
    152.75     83.5636     29.3112     73.0997
    153.00     83.1952     29.0684     71.4594
    153.25     82.7370     28.7156     74.5686
    153.50     82.0822     28.7581     75.3029
    153.75     80.9585     28.8084     76.4024
    154.00     81.0045     28.8876     77.8671
    154.25     82.1098     28.9237     77.6191
    154.50     81.7942     28.8836     72.9813
    154.75     81.0646     28.6504     72.0755
    155.00     80.4381     28.2741     73.8633
    155.25     78.8803     27.0664     74.3758
    155.50     76.2148     24.1957     74.8840
    155.75     73.5901     23.6683     78.2118
    156.00     72.6334     23.5187     78.4438
    156.25     72.6649     22.9913     76.0737
    156.50     72.7547     21.1032     74.4335
    156.75     72.5751     16.4941     77.1768
    157.00     66.5420     16.1398     79.3722
    157.25     53.5225     19.8254     77.1841
    157.50     54.9157     23.5648     75.9091
    157.75     61.8678     32.3740     74.0863
    158.00     79.1930     38.1201     68.6104
    158.25     96.3243     39.8602     65.8743
    158.50     99.4713     40.0616     68.1882
    158.75    100.0295     37.7471     70.5768
    159.00     95.6958     33.2891     71.7784
    159.25     87.5857     25.7322     75.0985
    159.50     72.3003     20.7452     80.8701
    159.75     65.5119     21.6793     85.2573
    160.00     64.7659     24.8301     83.4338
    160.25     65.5696     27.4772     82.7068
    160.50     72.1349     28.6882     85.6322
    160.75     80.2566     29.5213     77.6005
    161.00     81.0142     29.9764     75.9602
    161.25     81.7719     30.2804     74.6853
    161.50     82.1518     31.1135     73.4104
    161.75     84.7960     32.3398     70.6743
    162.00     88.5764     35.5575     63.7372
    162.25     95.3763     48.1684     63.6111
    162.50    106.1415     52.9219     62.5244
    162.75    116.3402     55.8984     58.4512
    163.00    123.7066     58.2315     63.0862
    163.25    129.7512     58.6725     70.1486
    163.50    120.0618     47.1510     78.1887
    163.75    108.8051     36.8730     90.7950
    164.00     83.5908     27.9555    104.6799
    164.25     68.0066     18.5089    114.9118
    164.50     61.7290     19.2293    120.3949
    164.75     61.2233     19.7203    126.2433
    165.00     61.6032     21.3483    121.7717
    165.25     64.6267     24.5793    106.9303
    165.50     71.8043     27.2024     88.2722
    165.75     79.9259     30.1425     73.9518
    166.00     86.5370     33.2943     66.3532
    166.25     93.5493     38.0198     63.6171
    166.50     98.1735     42.5002     56.3148
    166.75    105.8956     46.2263     52.6654
    167.00    114.2026     48.7330     51.3905
    167.25    118.0820     49.4566     51.0046
    167.50    117.8405     49.2185     51.6256
    167.75    116.6345     48.6154     52.5166
    168.00    115.3324     47.7856     53.7060
    168.25    114.1864     47.5602     57.3397
    168.50    114.6035     48.2424     58.2703
    168.75    116.9637     48.6975     60.2360
    169.00    117.5325     48.8503     62.9565
    169.25    117.5345     47.6426     66.8141
    169.50    115.7492     43.4114     77.1949
    169.75    108.6518     30.3367     92.6998
    170.00     98.5329     17.5644     98.9218
    170.25     71.8357     16.2054     93.5227
    170.50     56.4271     20.2012     88.8747
    170.75     56.7482     24.3722     80.3994
