~Version Information 
 VERS. 2.0                                         : CWLS Log ASCII Standard - VERSION 2.0
 WRAP. NO                                          : One line per depth step
#
~Well Information Block
#MNEM.UNIT           DATA                          : DESCRIPTION
#----.----          ---------                      : -----------
 STRT.F             0.0000                         : START DEPTH
 STOP.F             303.0000                       : STOP DEPTH
 STEP.F             0.2500                         : STEP LENGTH
 NULL.              -999.2500                      : NO VALUE
 WELL.  1407-E                                     : WELL
 FLD.               CARSTAIRS; D. BUSCHERT         : FIELD
 LOC.               EH-14-030-02W5                 : LOCATION
 PROV.              ALBERTA                        : PROVINCE
 STAT.              CANADA                         : STATE
 SRVC.ALBERTA       ENVIRONMENT                    : SERVICE COMPANY
 DATE.              1975/05/28                     : LOGDATE
 APIN.              442783                         : API NUMBER
 UWI.               EH-14-030-02W5                 : UNIQUE WELL ID
 DLAT.DEG            51.56920                      : Latitude north of equator
 DLON.DEG           114.17175                      : Longitude west of Greenwich
 GDAT.              NAD83                          : Horizontal datum
 EGND.F            3522.9661                       : Ground elevation +- 21.3
 UTMZ.                    11                       : UTM zone
 UTME.M               696001                       : UTM easting
 UTMN.M              5716915                       : UTM northing
 SID3.                442783                       : AENV GWRIS ID
 SNM3.   100EH1403002M500                          : DLS ID
#
~Parameter Information Block
#MNEM.UNIT           DATA                          : DESCRIPTION
#----.----          ---------                      : -----------
 EKB.F              0.0000                         : Kelly bushing
 EGL.F              0.0000                         : Ground level
 EDF.F              0.0000                         : Drilling floor
 EPD.F              0.0000                         : Permanent datum
 TD.F               303.0000                       : Total depth
 DATE.              28-MAY-1975                    : Date Logged [DD-MMM-YYYY]
 DD.F               305                            : Depth driller
 BLI.F              303                            : Bottom log interval
 BS1.IN             4.5                            : Bit size
 BSD1.F             305                            : Depth drilled with bit1
 DFT.               NATURAL                        : Type fluid in hole
 ENGI.              D. WYROSTOCK                   : Recorded By
 ORIG.              5" PRINT                       : Origin of data
 DICO.              Divestco                       : Digitizing Company
#
~Curve Information Block
#MNEM.UNIT             API CODE         Curve Description
#----.----           LG--CV-CL--M     : -----------------
 DEPT.F              00 001 00 00     : DEPTH BELOW REFERENCE
 RES1.OHMM           01 120 00 01     : RESISTIVITY
 RES2.OHMM           01 120 00 01     : RESISTIVITY
 GR.GAPI             30 310 01 01     : GAMMA RAY
#
~A DEPTH       RES1        RES2         GR
# ...
    213.75     92.4062     54.3600     71.9457
    214.00     90.9289     57.6873     72.4765
    214.25     97.3038     57.6133     68.5322
    214.50    113.6922     57.0103     64.1865
    214.75    125.0831     56.8420     56.7054
    215.00    126.4349     57.1646     55.3082
    215.25    125.6627     57.2418     55.4541
    215.50    124.9283     57.2434     55.6001
    215.75    125.5249     57.1693     55.7460
    216.00    125.8765     57.0198     54.9166
    216.25    125.8784     56.6435     56.2040
    216.50    125.6911     55.4357     57.3003
    216.75    125.3135     52.4139     58.6698
    217.00    124.8011     48.7839     59.6944
    217.25    123.8164     42.0793     58.9726
    217.50    121.1354     37.3899     62.9863
    217.75    114.9912     34.5551     65.0163
    218.00    103.3458     32.9910     67.9462
    218.25     94.1097     34.7455     71.7894
    218.50     88.6719     37.3080     73.9887
    218.75     85.8353     38.0668     76.7359
    219.00     87.7569     38.8256     73.4602
    219.25     90.2134     39.5845     69.8077
    219.50     91.3482     40.3433     69.8418
    219.75     91.3501     41.1157     72.2390
    220.00     91.7296     44.8439     73.3232
    220.25     92.8974     45.0987     70.5711
    220.50     97.0864     43.4245     68.2042
    220.75     99.3165     38.8366     68.6291
    221.00     98.1571     34.3763     69.0697
    221.25     94.1464     33.3953     69.5103
    221.50     89.9473     33.4141     69.8770
    221.75     86.5030     33.6641     70.2110
    222.00     83.0966     34.0158     72.6343
    222.25     82.3053     34.5078     76.6601
    222.50     83.2043     34.3781     77.5799
    222.75     84.3533     32.9988     75.7619
    223.00     85.1435     31.3821     74.1256
    223.25     84.0833     30.4452     74.4430
    223.50     81.9845     30.1597     77.5139
    223.75     80.3342     30.1736     80.8219
    224.00     78.3535     30.4330     79.7076
    224.25     77.3310     31.4892     76.5997
    224.50     77.6022     35.0794     77.0847
    224.75     77.9817     39.3736     78.5677
    225.00     79.1165     43.7046     79.8467
    225.25     81.5730     60.7813     79.2729
    225.50     84.5960     74.2390     77.7474
    225.75    106.8789     73.0644     74.1963
    226.00    137.2810     64.5135     65.7128
    226.25    136.2679     57.8296     62.8539
    226.50    129.3701     54.9102     60.6484
    226.75    122.0280     53.0307     59.8094
    227.00    117.2357     50.8625     66.7944
    227.25    115.4280     48.4142     68.8361
    227.50    114.3976     43.7159     68.9657
    227.75    113.0857     33.8158     72.2609
    228.00    101.3319     25.5785     79.3426
    228.25     94.7549     18.0971     88.7288
    228.50     84.7915     16.4353     94.4109
    228.75     73.2601     17.5359     99.1604
    229.00     59.8363     18.4922    101.5211
    229.25     53.8541     19.9741     97.3744
    229.50     57.4362     23.0027     94.6180
    229.75     59.8927     25.8258     93.3471
    230.00     62.3493     27.8479     87.3606
    230.25     64.9946     30.2039     77.9492
    230.50     66.5071     32.0195     75.9379
    230.75     69.3413     32.5502     76.9703
    231.00     74.8190     32.7786     76.5936
    231.25     78.0308     32.8557     74.4407
    231.50     79.7320     32.9329     73.1188
    231.75     80.1116     32.6322     71.0571
    232.00     80.3022     32.1047     69.0228
    232.25     80.1152     32.0306     67.0523
    232.50     79.9282     32.7881     71.4385
    232.75     80.1190     34.3770     73.4498
    233.00     80.3097     34.9077     75.2786
    233.25     81.2557     34.3046     72.2493
    233.50     82.7902     33.3992     70.1677
    233.75     84.2805     32.2630     69.9889
    234.00     83.6783     31.7180     71.2697
    234.25     81.8973     30.3743     75.6555
    234.50     79.0339     27.1676     78.5890
    234.75     76.1437     21.5984     82.5092
    235.00     72.8977     20.7104     90.1826
    235.25     69.9935     21.4869    101.5322
    235.50     66.5949     21.9744    109.6302
    235.75     63.5836     22.4187    114.8469
    236.00     60.7703     23.5461    126.9959
    236.25     60.8856     26.4227    124.6407
    236.50     61.6428     29.6996    121.7059
    236.75     61.6556     31.5023    118.7332
    237.00     64.4034     32.4249    103.8868
    237.25     73.8211     32.6676     80.1225
    237.50     76.4729     31.2619     70.9057
    237.75     79.3762     27.9644     69.8501
    238.00     81.7825     24.5596     72.2020
    238.25     78.9599     23.8729     74.5540
    238.50     73.5095     23.5865     74.3973
    238.75     68.6855     23.5313     74.0601
    239.00     66.7913     23.5565     78.2558
    239.25     65.4824     23.9396     77.1622
    239.50     64.3093     25.0723     73.8771
    239.75     64.3111     27.1341     76.2983
    240.00     64.8795     30.0724     76.9254
    240.25     72.4342     30.6548     76.0757
    240.50     76.0237     29.6898     75.5300
    240.75     76.6405     28.3298     75.2985
    241.00     76.0274     24.2370     78.1540
    241.25     73.7634     19.8548     81.0618
    241.50     70.3665     16.8969     88.4700
    241.75     65.8366     15.5064     97.5092
    242.00     60.7403     14.5576    102.7581
    242.25     54.1334     18.3837    104.6278
    242.50     48.8483     23.3670    104.4064
    242.75     46.0178     28.7916    101.8790
    243.00     46.5861     30.4913     94.8036
    243.25     48.2874     31.1530     81.9935
    243.50     57.1231     31.2719     79.4988
    243.75     72.4288     30.8484     79.5092
    244.00     77.2205     30.8001     77.4977
    244.25     77.7514     31.7304     76.1830
    244.50     77.7121     32.5635     71.5482
    244.75     78.3216     31.7336     73.3117
    245.00     79.4798     30.8984     76.1189
    245.25     78.7251     30.4398     80.1394
    245.50     77.1374     31.2492     83.2467
    245.75     74.7476     33.6544     85.9887
    246.00     73.6100     57.6946     77.2238
    246.25     78.7104     50.9855     74.6690
    246.50     89.6639     46.5436     73.2101
    246.75     95.3383     45.7298     73.9460
    247.00     97.2458     51.8144     74.3105
    247.25     99.6425     60.0754     70.7694
    247.50    108.6485     65.5168     62.3517
    247.75    120.1663     69.4167     57.1531
    248.00    128.0690     73.6289     54.5935
    248.25    131.6160     68.7179     57.6890
    248.50    133.7091     60.7830     60.8084
    248.75    132.2601     54.5110     65.5595
    249.00    126.9310     50.2042     68.4841
    249.25    120.9551     45.8974     66.2946
    249.50    114.2965     44.9920     64.8360
    249.75    107.2614     44.8424     73.4228
    250.00    102.9329     44.6928     75.1809
    250.25    100.8198     44.0897     75.5246
    250.50    100.2423     41.7941     75.8037
    250.75     99.4996     35.0822     79.2143
    251.00     98.1748     29.9600     84.1172
    251.25     94.2614     30.1118     88.7710
    251.50     87.9722     31.6093     91.0548
    251.75     76.5292     36.7699     92.2532
    252.00     73.0740     51.3075     85.2416
    252.25     73.4948     77.9416     77.2307
    252.50     79.9031     99.7736     70.9817
    252.75     86.9571    110.0170     65.8881
    253.00    100.8869    111.5304     60.4292
    253.25    118.4841    111.5564     55.4591
    253.50    128.2758    109.2660     45.6940
    253.75    142.0965     92.9410     48.1545
    254.00    153.0841     72.2321     52.7731
    254.25    159.7290     44.6449     57.2094
    254.50    160.3317     30.3608     65.0366
    254.75    146.2929     24.3155     74.7176
    255.00    121.4113     21.4449     78.9498
    255.25     89.9235     21.2953     81.1362
    255.50     68.2208     21.2968     83.0274
    255.75     59.0218     21.2985     84.6184
    256.00     56.5718     21.3001     80.8950
    256.25     56.9904     21.4047     77.7283
