~Version Information 
 VERS. 2.0                                         : CWLS Log ASCII Standard - VERSION 2.0
 WRAP. NO                                          : One line per depth step
#
~Well Information Block
#MNEM.UNIT           DATA                          : DESCRIPTION
#----.----          ---------                      : -----------
 STRT.F             0.0000                         : START DEPTH
 STOP.F             303.0000                       : STOP DEPTH
 STEP.F             0.2500                         : STEP LENGTH
 NULL.              -999.2500                      : NO VALUE
 WELL.  1407-E                                     : WELL
 FLD.               CARSTAIRS; D. BUSCHERT         : FIELD
 LOC.               EH-14-030-02W5                 : LOCATION
 PROV.              ALBERTA                        : PROVINCE
 STAT.              CANADA                         : STATE
 SRVC.ALBERTA       ENVIRONMENT                    : SERVICE COMPANY
 DATE.              1975/05/28                     : LOGDATE
 APIN.              442783                         : API NUMBER
 UWI.               EH-14-030-02W5                 : UNIQUE WELL ID
 DLAT.DEG            51.56920                      : Latitude north of equator
 DLON.DEG           114.17175                      : Longitude west of Greenwich
 GDAT.              NAD83                          : Horizontal datum
 EGND.F            3522.9661                       : Ground elevation +- 21.3
 UTMZ.                    11                       : UTM zone
 UTME.M               696001                       : UTM easting
 UTMN.M              5716915                       : UTM northing
 SID3.                442783                       : AENV GWRIS ID
 SNM3.   100EH1403002M500                          : DLS ID
#
~Parameter Information Block
#MNEM.UNIT           DATA                          : DESCRIPTION
#----.----          ---------                      : -----------
 EKB.F              0.0000                         : Kelly bushing
 EGL.F              0.0000                         : Ground level
 EDF.F              0.0000                         : Drilling floor
 EPD.F              0.0000                         : Permanent datum
 TD.F               303.0000                       : Total depth
 DATE.              28-MAY-1975                    : Date Logged [DD-MMM-YYYY]
 DD.F               305                            : Depth driller
 BLI.F              303                            : Bottom log interval
 BS1.IN             4.5                            : Bit size
 BSD1.F             305                            : Depth drilled with bit1
 DFT.               NATURAL                        : Type fluid in hole
 ENGI.              D. WYROSTOCK                   : Recorded By
 ORIG.              5" PRINT                       : Origin of data
 DICO.              Divestco                       : Digitizing Company
#
~Curve Information Block
#MNEM.UNIT             API CODE         Curve Description
#----.----           LG--CV-CL--M     : -----------------
 DEPT.F              00 001 00 00     : DEPTH BELOW REFERENCE
 RES1.OHMM           01 120 00 01     : RESISTIVITY
 RES2.OHMM           01 120 00 01     : RESISTIVITY
 GR.GAPI             30 310 01 01     : GAMMA RAY
#
~A DEPTH       RES1        RES2         GR
      0.00     56.2689    110.6579      0.0000
      0.25     59.6889    110.6598      0.0000
      0.50     61.3907    110.6616      0.0000
      0.75     62.3277    110.6635      0.0000
      1.00     62.6983    110.6653      0.0000
      1.25     62.9209    110.6672      0.0000
      1.50     63.7226    110.6690      0.0000
      1.75     65.2702    110.6709      0.0000
      2.00     67.4157    110.6727      0.0000
      2.25     70.5462    110.6746      0.0000
      2.50     74.7655    110.6765      0.0000
      2.75     78.9220    110.6820      0.0000
      3.00     82.3546    110.6908      0.0000
      3.25     84.0312    110.6996      0.0000
      3.50     85.4686    110.7083      0.0000
      3.75     86.2797    110.7171      0.0000
      4.00     87.5252    110.7259      0.0000
      4.25     90.3473    110.7347      0.0000
      4.50     94.1890    110.7435      0.0000
      4.75     98.8206    110.7523      0.0000
      5.00    103.6474    110.7610      0.0000
      5.25    105.2138    110.7698      0.0000
      5.50    103.5266    110.7786      0.0000
      5.75    102.5848    110.7874      0.0000
      6.00    102.3984    110.7962      1.2779
      6.25    101.8342    110.8050     61.9096
      6.50    100.3260    110.8137     64.0938
      6.75     97.1184    110.8225     64.8169
      7.00     93.5331    110.8313     66.2706
      7.25     91.4584    110.8401     67.2929
      7.50     93.1599    110.8489     65.8774
      7.75     99.0661    110.8577     71.3609
      8.00    105.5640    110.8664     80.4857
      8.25    114.5228     45.7163     83.7659
      8.50    131.0219     42.1656     86.1328
      8.75    166.8280     39.2196     86.7352
      9.00    198.7259     46.5536     84.0365
      9.25    203.6376     53.2826     79.2682
      9.50    209.3046     58.5755     72.9061
      9.75    211.1952     66.1359     63.8706
     10.00    211.7640     72.1846     56.4722
     10.25    212.1440     73.0179     52.4599
     10.50    212.7128     72.8686     53.1336
     10.75    213.4704     72.5681     53.8131
     11.00    213.4727     72.3432     54.5855
     11.25    212.7198     72.4962     55.9142
     11.50    209.5122     72.5752     51.5206
     11.75    204.2275     72.6511     50.7824
     12.00    190.2570     72.4807     51.2116
     12.25    174.9648     71.7056     53.8101
     12.50    158.5397     67.8320     56.1323
     12.75    137.0163     60.7368     57.2354
     13.00    120.0247     54.5382     59.1733
     13.25    114.1736     47.6386     63.3010
     13.50    110.2107     41.6092     68.4049
     13.75    109.8353     34.6542     72.3736
     14.00    111.7183     32.5029     75.5177
     14.25    116.4928     32.5224     78.9178
     14.50    123.6074     32.7218     81.9547
     14.75    129.1863     33.3672     80.2526
     15.00    131.9392     35.1499     77.9198
     15.25    129.8330     38.2612     76.1206
     15.50    124.4036     41.4630     73.1551
     15.75    113.6684     39.7029     68.5677
     16.00     98.5524     37.5167     65.4098
     16.25     90.6462     34.4388     64.1679
     16.50     87.5047     31.6082     67.9645
     16.75     86.6384     28.6534     71.7546
     17.00     88.2270     25.0627     75.1842
     17.25     89.1262     24.6956     78.2410
     17.50     89.1003     24.9597     80.6917
     17.75     88.3475     25.0979     79.1223
     18.00     87.2169     25.1547     76.3470
     18.25     86.8416     25.0553     74.9653
     18.50     88.6440     25.0072     76.2763
     18.75     91.1734     25.3307     77.4208
     19.00     92.3249     26.2681     75.9508
     19.25     92.3268     27.0525     75.9433
     19.50     92.5184     27.2071     77.0317
     19.75     96.4860     27.2090     78.3785
     20.00    110.6507     27.1807     78.9244
     20.25    125.5743     27.4399     79.3848
     20.50    131.8121     28.7267     79.4375
     20.75    138.8052     31.4496     79.7350
     21.00    141.0777     35.2308     75.7067
     21.25    141.6509     41.2039     70.9503
     21.50    144.1122     45.2874     67.4724
     21.75    147.9355     45.5160     65.6384
     22.00    146.2027     45.9714     63.4391
     22.25    132.2365     47.5605     64.4524
     22.50    116.9487     47.5501     65.7078
     22.75    106.3813     46.3511     66.5631
     23.00    103.5557     42.8919     66.3859
     23.25    104.5065     39.3995     62.5728
     23.50    109.0449     33.4455     61.2917
     23.75    115.6603     30.0523     65.9422
     24.00    122.8423     33.6962     72.3273
     24.25    126.6254     36.4488     75.4248
     24.50    128.5203     38.5831     75.6282
     24.75    130.2264     39.9455     75.2283
     25.00    133.0654     41.3079     77.0404
     25.25    137.3017     41.7633     75.0159
     25.50    150.4818     42.9745     71.7676
     25.75    176.5901     47.5115     71.4661
     26.00    178.2208     54.0138     70.9244
     26.25    178.2118     57.3414     68.6580
     26.50    177.6686     58.7038     63.5072
     26.75    177.8185     59.1592     58.8180
     27.00    179.3429     59.4634     58.4414
     27.25    181.8169     59.6164     58.7269
     27.50    186.5930     59.5402     58.5368
     27.75    195.7497     59.4689     56.6472
     28.00    200.3662     60.6168     55.0151
     28.25    198.6585     65.2936     58.6833
     28.50    195.8989     67.3008     60.1369
     28.75    190.2851     67.4492     58.6581
     29.00    185.6783     67.0371     56.6352
     29.25    182.3303     65.0737     55.5481
     29.50    180.2978     61.6742     55.9185
     29.75    177.7838     59.6950     56.0810
     30.00    173.2316     58.9418     56.6210
     30.25    180.0358     58.4428     61.3812
     30.50    182.4972     56.9198     65.5671
     30.75    184.3921     58.4425     67.6514
     31.00    182.1329     60.5941     68.9335
     31.25    174.3980     62.2543     69.9171
     31.50    163.4530     63.2983     66.3653
     31.75    160.7701     63.0518     68.1727
     32.00    165.7315     61.7102     70.7742
     32.25    178.8615     57.0946     71.6910
     32.50    200.5511     53.5538     74.8435
     32.75    213.9013     55.3300     77.1143
     33.00    213.8703     62.0161     74.3684
     33.25    213.7253     72.9294     66.8150
     33.50    213.5431     86.7455     59.3401
     33.75    213.5035     97.6979     53.7976
     34.00    213.3677    105.3364     49.9131
     34.25    213.1078    106.0787     47.7556
     34.50    159.4735     91.1552     46.8118
     34.75    123.0186     79.7192     47.2104
     35.00     94.8785     68.3723     48.0664
     35.25     81.5575     49.3945     48.6068
     35.50     78.5714     35.4369     51.8456
     35.75     77.8405     22.4415     57.0626
     36.00     79.9255     19.9242     63.7428
     36.25     81.9779     20.6507     78.5298
     36.50     81.5283     21.2337     85.2802
     36.75     77.6328     21.6688     85.8219
     37.00     67.9183     21.3683     85.8131
     37.25     64.2021     19.3294     87.9974
     37.50     63.4441     16.5345     89.4520
     37.75     63.0701     15.3270     89.8088
     38.00     63.0862     15.0265     95.2807
     38.25     64.3895     15.1040     96.7343
     38.50     68.7581     15.0303     94.5350
     38.75     74.2407     15.3420     98.7284
     39.00     77.5531     16.5266    101.4606
     39.25     87.9450     18.1070    101.4734
     39.50    101.7357     19.1204     96.3918
     39.75    118.5475     24.2953     91.7576
     40.00    124.7853     32.1845     87.3665
     40.25    127.0579     37.8225     81.3316
     40.50    127.1202     38.9169     69.9999
     40.75    123.4836     39.3806     65.7914
     41.00    113.1051     39.6898     63.7693
     41.25     96.4955     36.1029     62.2755
     41.50     94.9908     30.0764     59.9241
     41.75     96.1312     27.5875     63.1277
     42.00     99.3479     26.8482     66.2567
     42.25     99.9210     28.2862     69.4157
     42.50     99.3613     28.6092     73.0446
