~Version Information 
 VERS. 2.0                                         : CWLS Log ASCII Standard - VERSION 2.0
 WRAP. NO                                          : One line per depth step
#
~Well Information Block
#MNEM.UNIT           DATA                          : DESCRIPTION
#----.----          ---------                      : -----------
 STRT.F             0.0000                         : START DEPTH
 STOP.F             303.0000                       : STOP DEPTH
 STEP.F             0.2500                         : STEP LENGTH
 NULL.              -999.2500                      : NO VALUE
 WELL.  1407-E                                     : WELL
 FLD.               CARSTAIRS; D. BUSCHERT         : FIELD
 LOC.               EH-14-030-02W5                 : LOCATION
 PROV.              ALBERTA                        : PROVINCE
 STAT.              CANADA                         : STATE
 SRVC.ALBERTA       ENVIRONMENT                    : SERVICE COMPANY
 DATE.              1975/05/28                     : LOGDATE
 APIN.              442783                         : API NUMBER
 UWI.               EH-14-030-02W5                 : UNIQUE WELL ID
 DLAT.DEG            51.56920                      : Latitude north of equator
 DLON.DEG           114.17175                      : Longitude west of Greenwich
 GDAT.              NAD83                          : Horizontal datum
 EGND.F            3522.9661                       : Ground elevation +- 21.3
 UTMZ.                    11                       : UTM zone
 UTME.M               696001                       : UTM easting
 UTMN.M              5716915                       : UTM northing
 SID3.                442783                       : AENV GWRIS ID
 SNM3.   100EH1403002M500                          : DLS ID
#
~Parameter Information Block
#MNEM.UNIT           DATA                          : DESCRIPTION
#----.----          ---------                      : -----------
 EKB.F              0.0000                         : Kelly bushing
 EGL.F              0.0000                         : Ground level
 EDF.F              0.0000                         : Drilling floor
 EPD.F              0.0000                         : Permanent datum
 TD.F               303.0000                       : Total depth
 DATE.              28-MAY-1975                    : Date Logged [DD-MMM-YYYY]
 DD.F               305                            : Depth driller
 BLI.F              303                            : Bottom log interval
 BS1.IN             4.5                            : Bit size
 BSD1.F             305                            : Depth drilled with bit1
 DFT.               NATURAL                        : Type fluid in hole
 ENGI.              D. WYROSTOCK                   : Recorded By
 ORIG.              5" PRINT                       : Origin of data
 DICO.              Divestco                       : Digitizing Company
#
~Curve Information Block
#MNEM.UNIT             API CODE         Curve Description
#----.----           LG--CV-CL--M     : -----------------
 DEPT.F              00 001 00 00     : DEPTH BELOW REFERENCE
 RES1.OHMM           01 120 00 01     : RESISTIVITY
 RES2.OHMM           01 120 00 01     : RESISTIVITY
 GR.GAPI             30 310 01 01     : GAMMA RAY
#
~A DEPTH       RES1        RES2         GR
# ...
    256.50     57.6032     21.6947     75.6271
    256.75     57.7339     22.1013     75.3124
    257.00     57.2154     23.1332     78.9560
    257.25     56.7837     24.5449     81.5197
    257.50     56.4107     26.9580     83.7517
    257.75     55.8489     29.0999     88.6949
    258.00     55.4758     30.5776     88.8400
    258.25     57.4952     31.7458     86.4679
    258.50     62.8648     32.5033     85.6629
    258.75     67.2675     32.6560     80.7040
    259.00     70.9781     32.3553     80.0708
    259.25     72.8789     31.2987     80.6325
    259.50     74.5280     30.0909     80.0868
    259.75     75.3345     28.8831     78.3075
    260.00     74.2384     27.3730     76.8033
    260.25     73.1023     25.3338     85.2351
    260.50     70.8332     22.3875     87.5964
    260.75     68.0373     20.2727     92.1011
    261.00     65.6344     18.9138     95.6317
    261.25     63.0429     18.1359     98.2915
    261.50     60.4355     17.3135    103.9710
    261.75     57.4357     16.2691    111.6308
    262.00     54.6080     16.0476    117.1870
    262.25     50.4586     16.0496    110.8561
    262.50     48.5366     16.0593    109.7489
    262.75     49.4051     16.2246    107.8928
    263.00     49.3181     16.6339    103.4427
    263.25     48.3210     17.3378     95.9243
    263.50     47.2717     18.0874     87.4480
    263.75     49.3534     19.7374     80.5825
    264.00     50.3021     23.6954     74.9406
    264.25     52.8244     30.7264     69.5322
    264.50     55.9289     36.4726     62.8720
    264.75     62.5665     41.3116     60.0709
    265.00     71.3434     44.6390     58.2192
    265.25     77.8465     48.6467     56.9246
    265.50     83.7989     50.4623     56.0137
    265.75     88.6265     49.6350     57.1941
    266.00     92.8249     48.6515     61.1511
    266.25     96.8186     45.1761     67.5461
    266.50     98.4989     40.8693     71.9319
    266.75     97.0561     36.2602     74.4912
    267.00     92.3716     32.2557     77.0506
    267.25     84.8315     30.3645     77.4660
    267.50     78.0144     29.6107     77.9538
    267.75     73.4100     29.5394     78.7390
    268.00     71.3376     29.7210     80.4565
    268.25     70.7758     30.5349     80.1084
    268.50     70.7326     32.3952     77.6140
    268.75     71.1627     35.4520     75.1940
    269.00     72.6779     38.0777     72.4049
    269.25     78.5360     39.7515     68.9750
    269.50     84.0164     40.1949     65.5666
    269.75     85.7205     40.4365     62.4639
    270.00     87.0468     38.9619     65.9361
    270.25     84.7864     35.4975     75.6826
    270.50     82.3363     32.0331     80.7899
    270.75     79.5086     28.5687     81.4800
    271.00     75.9256     25.1044     80.7400
    271.25     71.9650     23.6707     84.3952
    271.50     67.6267     23.7491     87.9265
    271.75     64.0437     23.7516     91.6187
    272.00     61.5937     23.6781     93.0228
    272.25     61.2199     23.6810     96.7511
    272.50     63.1142     23.5198    103.1280
    272.75     63.8742     22.7471    108.8564
    273.00     64.6341     18.9364    115.0407
    273.25     64.2292     15.4514    119.7740
    273.50     62.2828     15.3103    122.6713
    273.75     59.1729     16.1565    125.1941
    274.00     54.6458     18.5593    126.7941
    274.25     50.1187     21.5852    120.6638
    274.50     49.8631     25.4425    115.5844
    274.75     53.9433     29.0731    109.7400
    275.00     56.0801     31.2673    104.9042
    275.25     60.0502     29.6158    103.6187
    275.50     65.7349     24.1233    104.7260
    275.75     71.1064     20.6523    104.8653
    276.00     76.5869     18.5039    104.6027
    276.25     71.9669     18.5064    105.6279
    276.50     66.2109     18.6882    109.2831
    276.75     60.7397     20.6718    103.6069
    277.00     55.0797     25.0271     99.7412
    277.25     50.5526     28.7191     97.1712
    277.50     52.7285     32.1240     94.9544
    277.75     55.0462     34.0397     92.7571
    278.00     58.4970     34.7544     90.7520
    278.25     64.4338     35.0798     89.6979
    278.50     68.3412     35.2335     88.4428
    278.75     72.2953     35.2360     85.9248
    279.00     75.4467     35.1628     89.0209
    279.25     76.6475     35.0897     90.8604
    279.50     76.6522     35.7725     88.8539
    279.75     76.6569     37.2867     85.2032
    280.00     76.7246     40.3881     82.1005
    280.25     77.1148     48.6295     79.7010
    280.50     77.8512     57.2487     77.0823
    280.75     79.6498     62.7014     72.3488
    281.00     83.4781     63.3757     65.1232
    281.25     90.3515     60.6828     69.8742
    281.50    102.9514     57.8475     70.6512
    281.75    111.8164     52.1421     67.8608
    282.00    113.1428     42.6404     74.0823
    282.25    111.6414     32.2431     78.6508
    282.50    108.9979     23.3313     85.9251
    282.75    102.5826     21.5197     92.5370
    283.00     87.2927     21.6932     94.7310
    283.25     79.7444     23.3983     95.0513
    283.50     65.7762     25.8958     93.1740
    283.75     58.6056     28.5000     87.1121
    284.00     57.6662     31.0623     83.4151
    284.25     59.3710     35.7771     87.3871
    284.50     61.0750     31.7842     89.6728
    284.75     62.2125     21.5399     90.1228
    285.00     61.7919     19.5763     90.0000
    285.25     60.2931     21.9859     91.3083
    285.50     58.6544     23.3963     93.2649
    285.75     56.3783     24.5843     88.5091
    286.00     55.2492     25.2540     88.2714
    286.25     56.7171     24.8542     88.5499
    286.50     61.5214     24.2165     84.1871
    286.75     64.1066     22.8520     83.0750
    287.00     64.5297     20.4955     88.5570
    287.25     63.0310     19.7501     87.0213
    287.50     60.5646     19.4032     85.5174
    287.75     58.1139     18.8057     87.1030
    288.00     58.0612     17.8080     88.7491
    288.25     57.9770     17.0761     89.2993
    288.50     57.3262     17.3317     90.1826
    288.75     55.7262     19.1042     91.8684
    289.00     53.1344     23.0135     89.8905
    289.25     52.3314     26.3080     83.8289
    289.50     53.5215     30.0027     81.6393
    289.75     58.0968     32.0697     79.4498
    290.00     65.3331     33.0646     77.3060
    290.25     69.3030     33.3862     79.6370
    290.50     73.2729     33.4282     76.6848
    290.75     74.9769     34.1841     72.4772
    291.00     75.5480     36.7957     71.9726
    291.25     75.7414     39.5192     71.4168
    291.50     76.1237     40.7311     68.9533
    291.75     77.8277     42.6232     66.2153
    292.00     81.0045     47.1608     64.1035
    292.25     84.2577     49.8844     62.9110
    292.50     87.2834     51.0206     61.9863
    292.75     92.0086     49.2782     59.3863
    293.00     95.0344     47.4896     61.0155
    293.25     96.9272     43.8478     63.0434
    293.50     99.1977     48.2342     66.1937
    293.75     95.2371     53.1368     69.9885
    294.00     92.7870    109.8563     65.5709
    294.25     92.8795    111.6062     63.1347
    294.50     94.5363    111.7359     59.8768
    294.75     96.7741    111.7387     52.5820
    295.00    107.5340    108.8689     51.7353
    295.25    141.5653     79.7639     54.4085
    295.50    160.5552     48.9792     56.3606
    295.75    163.3214     20.9310     60.4317
    296.00    160.0453     12.2684     66.2579
    296.25    144.2717     11.4324     76.7389
    296.50    104.4951     11.1170     83.3014
    296.75     82.1482     11.0410     88.2367
    297.00     63.0410     11.0053     90.7428
    297.25     47.3107     10.9646     91.9307
    297.50     42.2488     10.6329     95.8216
    297.75     41.1994      9.3504     99.7922
    298.00     40.4331      7.7656    103.5861
    298.25     39.7847      5.6516    102.0024
    298.50     40.2536      4.9738    100.1560
    298.75     41.7532      5.8321    100.3540
    299.00     42.4660      6.9723    108.0235
