~Version Information 
 VERS. 2.0                                         : CWLS Log ASCII Standard - VERSION 2.0
 WRAP. NO                                          : One line per depth step
#
~Well Information Block
#MNEM.UNIT           DATA                          : DESCRIPTION
#----.----          ---------                      : -----------
 STRT.F             0.0000                         : START DEPTH
 STOP.F             303.0000                       : STOP DEPTH
 STEP.F             0.2500                         : STEP LENGTH
 NULL.              -999.2500                      : NO VALUE
 WELL.  1407-E                                     : WELL
 FLD.               CARSTAIRS; D. BUSCHERT         : FIELD
 LOC.               EH-14-030-02W5                 : LOCATION
 PROV.              ALBERTA                        : PROVINCE
 STAT.              CANADA                         : STATE
 SRVC.ALBERTA       ENVIRONMENT                    : SERVICE COMPANY
 DATE.              1975/05/28                     : LOGDATE
 APIN.              442783                         : API NUMBER
 UWI.               EH-14-030-02W5                 : UNIQUE WELL ID
 DLAT.DEG            51.56920                      : Latitude north of equator
 DLON.DEG           114.17175                      : Longitude west of Greenwich
 GDAT.              NAD83                          : Horizontal datum
 EGND.F            3522.9661                       : Ground elevation +- 21.3
 UTMZ.                    11                       : UTM zone
 UTME.M               696001                       : UTM easting
 UTMN.M              5716915                       : UTM northing
 SID3.                442783                       : AENV GWRIS ID
 SNM3.   100EH1403002M500                          : DLS ID
#
~Parameter Information Block
#MNEM.UNIT           DATA                          : DESCRIPTION
#----.----          ---------                      : -----------
 EKB.F              0.0000                         : Kelly bushing
 EGL.F              0.0000                         : Ground level
 EDF.F              0.0000                         : Drilling floor
 EPD.F              0.0000                         : Permanent datum
 TD.F               303.0000                       : Total depth
 DATE.              28-MAY-1975                    : Date Logged [DD-MMM-YYYY]
 DD.F               305                            : Depth driller
 BLI.F              303                            : Bottom log interval
 BS1.IN             4.5                            : Bit size
 BSD1.F             305                            : Depth drilled with bit1
 DFT.               NATURAL                        : Type fluid in hole
 ENGI.              D. WYROSTOCK                   : Recorded By
 ORIG.              5" PRINT                       : Origin of data
 DICO.              Divestco                       : Digitizing Company
#
~Curve Information Block
#MNEM.UNIT             API CODE         Curve Description
#----.----           LG--CV-CL--M     : -----------------
 DEPT.F              00 001 00 00     : DEPTH BELOW REFERENCE
 RES1.OHMM           01 120 00 01     : RESISTIVITY
 RES2.OHMM           01 120 00 01     : RESISTIVITY
 GR.GAPI             30 310 01 01     : GAMMA RAY
#
~A DEPTH       RES1        RES2         GR
# ...
     85.50     62.7940     15.2948    119.4430
     85.75     65.1579     16.4687    124.5141
     86.00     69.3407     19.2734    117.0155
     86.25     75.9311     22.1943    111.8938
     86.50     80.0542     23.8590    104.3977
     86.75     82.3708     25.1459     95.6230
     87.00     84.5616     26.9618     86.3004
     87.25     89.4557     30.0627     79.1696
     87.50     97.4590     34.5241     74.4132
     87.75    104.7134     39.2879     67.8304
     88.00    117.6701     49.9474     62.3434
     88.25    136.8860     58.4149     57.7696
     88.50    160.9806     59.3238     51.5521
     88.75    169.7013     59.8547     47.5263
     89.00    171.0469     60.2346     45.1443
     89.25    171.8088     60.8288     42.9450
     89.50    172.7596     62.4432     41.6589
     89.75    175.5987     64.8296     42.8547
     90.00    181.4588     70.9549     46.0818
     90.25    192.9836     74.8490     48.2367
     90.50    202.8091     77.9448     48.9939
     90.75    209.6133     81.8903     49.7466
     91.00    213.0188     86.9423     45.4824
     91.25    214.1584     95.3836     39.2580
     91.50    214.1651    106.6054     41.0746
     91.75    214.1718    110.2959     42.7116
     92.00    214.1785    109.3122     43.3546
     92.25    214.1852     92.4866     43.6476
     92.50    214.1919     74.2943     44.5282
     92.75    207.7786     61.8501     48.1302
     93.00    161.7879     47.2819     51.4287
     93.25    109.2270     27.0903     56.9139
     93.50     97.1491     27.4308     64.4107
     93.75     93.3794     28.5998     73.3688
     94.00     94.3313     28.8284     79.9524
     94.25     98.4921     28.5975     82.6777
     94.50     98.6876     28.0673     79.3105
     94.75     96.9573     27.8303     77.2549
     95.00     95.4269     29.5921     76.0578
     95.25     94.5513     30.1218     74.8607
     95.50     98.9031     30.5029     73.5723
     95.75    100.9869     28.1616     72.1788
     96.00     99.3059     24.9133     69.7916
     96.25     93.4465     21.1359     70.2930
     96.50     84.8430     18.6434     71.2693
     96.75     77.5676     16.9824     77.7839
     97.00     73.4768     15.2458     85.5067
     97.25     68.2657     13.5092     95.7009
     97.50     64.4017     12.3017    106.0047
     97.75     59.7697     11.3966    114.0845
     98.00     53.8411     10.4914    122.2778
     98.25     50.8520     10.7643    119.3637
     98.50     50.4551     12.3122    117.3629
     98.75     51.4067     14.3522    115.1794
     99.00     54.2458     15.8658    105.8726
     99.25     59.0204     18.4376     98.9402
     99.50     63.5115     23.0502     93.6517
     99.75     67.8139     27.8896     87.6325
    100.00     74.9751     31.7376     81.4307
    100.25     87.1369     35.1380     75.3479
    100.50     99.2987     38.5384     70.3516
    100.75    109.2661     41.1055     64.9490
    101.00    119.1062     41.7308     63.3272
    101.25    123.4170     41.0095     62.6141
    101.50    126.3495     39.9395     62.3023
    101.75    118.0476     37.8407     62.8044
    102.00    116.9184     36.6739     64.1461
    102.25    116.9239     36.6336     66.6750
    102.50    116.7397     36.3568     68.6834
    102.75    114.9764     35.3162     67.2064
    103.00    112.4061     32.4868     64.5450
    103.25    105.2355     29.3771     64.5751
    103.50     98.8202     26.3744     66.1198
    103.75     91.8384     23.2335     67.8589
    104.00     82.2131     21.1946     70.7895
    104.25     76.9307     22.8161     75.1814
    104.50     78.0691     24.9333     78.4773
    104.75     84.4936     30.0151     81.7732
    105.00     91.1070     32.6153     83.3334
    105.25     99.2310     33.3132     80.6202
    105.50    100.5574     33.3308     75.6789
    105.75     98.8626     32.6213     71.7009
    106.00     95.2796     30.0532     66.2908
    106.25     92.6408     28.3922     64.6553
    106.50     91.3236     27.8649     65.6502
    106.75     89.7781     27.4889     69.9764
    107.00     87.0544     26.6593     71.6560
    107.25     83.1121     24.9982     71.2701
    107.50     77.8607     22.2034     70.4490
    107.75     71.6362     18.7283     73.2894
    108.00     64.6450     14.1950     77.3159
    108.25     60.7669     14.1213     85.3607
    108.50     60.8868     14.2177     91.7617
    108.75     62.4260     15.5140     95.6055
    109.00     65.5816     18.4228     97.6229
    109.25     68.4048     19.4514     97.0944
    109.50     70.4909     19.5729     93.8052
    109.75     71.0857     19.5748     91.6217
    110.00     70.9844     19.4507     90.3515
    110.25     69.8146     19.2196     91.4013
    110.50     67.0421     18.9128     92.0105
    110.75     64.2144     18.4958     90.2930
    111.00     62.7084     18.0726     87.7169
    111.25     62.7131     17.4785     86.0079
    111.50     62.7177     17.5135     88.4711
    111.75     61.0229     17.5492     90.8790
    112.00     58.1952     17.1731     94.8188
    112.25     55.7452     16.0727     94.7664
    112.50     53.1063     14.3298     95.4566
    112.75     52.3557     13.2200    101.1453
    113.00     52.9771     12.8721    107.0703
    113.25     56.1773     13.5627    102.1501
    113.50     58.3421     15.8365     97.8649
    113.75     69.5577     21.1927     93.5796
    114.00     73.9045     22.3284     87.9280
    114.25     71.5181     21.3476     81.3610
    114.50     68.3743     20.2912     81.7871
    114.75     67.4985     20.4409     79.3653
    115.00     68.9011     21.2776     76.9102
    115.25     74.9562     23.6981     75.1651
    115.50     84.5198     28.8398     73.5936
    115.75     99.6063     38.6678     68.7892
    116.00    113.8417     51.2169     59.1371
    116.25    126.7891     53.7163     55.1271
    116.50    129.9981     53.7906     54.7701
    116.75    124.6548     52.7343     54.0478
    117.00    114.5591     49.1207     51.3163
    117.25    100.4021     44.8047     55.7081
    117.50     85.3010     40.9108     60.2826
    117.75     75.8645     35.7192     65.0397
    118.00     69.8268     29.0602     69.0663
    118.25     68.6341     23.1916     73.2755
    118.50     70.0249     21.9180     74.3796
    118.75     73.8060     25.3876     78.4062
    119.00     81.3635     27.5058     80.7336
    119.25     84.7669     28.5659     81.3113
    119.50     85.5268     28.4614     80.9878
    119.75     85.1325     27.9617     79.5826
    120.00     82.8929     26.3976     78.0808
    120.25     76.9949     23.7326     84.4343
    120.50     73.1098     21.7964     87.9631
    120.75     71.2516     20.1332     88.5193
    121.00     69.3618     18.5661     90.3541
    121.25     65.5196     16.4139     92.5541
    121.50     60.3808     14.8531     95.4848
    121.75     57.6244     15.4110    100.4246
    122.00     61.4055     17.9680    102.7215
    122.25     64.8089     20.4668    101.3543
    122.50     67.6459     22.1892    100.9973
    122.75     71.0493     23.4825     99.7270
    123.00     74.6416     24.0750     94.6211
    123.25     76.3456     24.3857     82.7573
    123.50     76.9167     25.2496     84.9635
    123.75     77.4878     27.1603     84.1742
    124.00     79.2069     29.9586     80.4931
    124.25     82.3250     32.3034     81.0981
    124.50     89.6659     34.1191     83.7336
    124.75     98.5143     35.7080     78.8456
    125.00     97.8726     36.5409     74.0183
    125.25     95.0670     35.5014     71.1339
    125.50     90.9882     33.2343     76.3942
    125.75     84.0439     29.8708     82.4848
    126.00     73.6178     24.7216     89.6090
    126.25     66.9578     18.1241     98.2017
    126.50     63.3063     17.1251    102.7762
    126.75     62.1677     17.0511    104.9762
    127.00     61.8773     17.2342    113.2037
    127.25     62.2596     17.8827    116.4996
    127.50     64.9077     19.6468    119.0650
    127.75     68.8776     21.7566    117.5128
    128.00     73.7916     23.4845    105.5655
