~Version Information 
 VERS. 2.0                                         : CWLS Log ASCII Standard - VERSION 2.0
 WRAP. NO                                          : One line per depth step
#
~Well Information Block
#MNEM.UNIT           DATA                          : DESCRIPTION
#----.----          ---------                      : -----------
 STRT.F             0.0000                         : START DEPTH
 STOP.F             303.0000                       : STOP DEPTH
 STEP.F             0.2500                         : STEP LENGTH
 NULL.              -999.2500                      : NO VALUE
 WELL.  1407-E                                     : WELL
 FLD.               CARSTAIRS; D. BUSCHERT         : FIELD
 LOC.               EH-14-030-02W5                 : LOCATION
 PROV.              ALBERTA                        : PROVINCE
 STAT.              CANADA                         : STATE
 SRVC.ALBERTA       ENVIRONMENT                    : SERVICE COMPANY
 DATE.              1975/05/28                     : LOGDATE
 APIN.              442783                         : API NUMBER
 UWI.               EH-14-030-02W5                 : UNIQUE WELL ID
 DLAT.DEG            51.56920                      : Latitude north of equator
 DLON.DEG           114.17175                      : Longitude west of Greenwich
 GDAT.              NAD83                          : Horizontal datum
 EGND.F            3522.9661                       : Ground elevation +- 21.3
 UTMZ.                    11                       : UTM zone
 UTME.M               696001                       : UTM easting
 UTMN.M              5716915                       : UTM northing
 SID3.                442783                       : AENV GWRIS ID
 SNM3.   100EH1403002M500                          : DLS ID
#
~Parameter Information Block
#MNEM.UNIT           DATA                          : DESCRIPTION
#----.----          ---------                      : -----------
 EKB.F              0.0000                         : Kelly bushing
 EGL.F              0.0000                         : Ground level
 EDF.F              0.0000                         : Drilling floor
 EPD.F              0.0000                         : Permanent datum
 TD.F               303.0000                       : Total depth
 DATE.              28-MAY-1975                    : Date Logged [DD-MMM-YYYY]
 DD.F               305                            : Depth driller
 BLI.F              303                            : Bottom log interval
 BS1.IN             4.5                            : Bit size
 BSD1.F             305                            : Depth drilled with bit1
 DFT.               NATURAL                        : Type fluid in hole
 ENGI.              D. WYROSTOCK                   : Recorded By
 ORIG.              5" PRINT                       : Origin of data
 DICO.              Divestco                       : Digitizing Company
#
~Curve Information Block
#MNEM.UNIT             API CODE         Curve Description
#----.----           LG--CV-CL--M     : -----------------
 DEPT.F              00 001 00 00     : DEPTH BELOW REFERENCE
 RES1.OHMM           01 120 00 01     : RESISTIVITY
 RES2.OHMM           01 120 00 01     : RESISTIVITY
 GR.GAPI             30 310 01 01     : GAMMA RAY
#
~A DEPTH       RES1        RES2         GR
# ...
     42.75     96.3468     28.9702     72.2511
     43.00     88.2342     28.8965     70.5689
     43.25     63.8828     27.3753     69.5465
     43.50     57.2808     23.9499     68.5145
     43.75     56.0126     15.5108     67.1622
     44.00     58.4282     11.5192     76.7488
     44.25     63.1554     13.0330     86.8707
     44.50     70.1485     15.4536     91.9773
     44.75     75.2534     18.3278     93.7962
     45.00     79.2253     20.1437     93.9714
     45.25     84.5190     21.2793     87.7538
     45.50     89.4351     22.5712     84.6412
     45.75     95.2952     24.1979     81.5286
     46.00     97.3781     26.5851     76.0417
     46.25     95.5910     28.4763     74.5730
     46.50     87.8371     28.2895     69.6339
     46.75     77.1095     23.4766     65.7908
     47.00     69.6482     18.9433     65.2116
     47.25     66.4445     16.8666     66.7077
     47.50     67.2385     16.0658     69.9256
     47.75     70.3797     15.5529     71.4521
     48.00     79.8717     15.4040     73.5356
     48.25     89.7757     16.8091     77.2511
     48.50     97.8797     19.9559     78.1594
     48.75    105.9965     25.8749     75.9894
     49.00    113.9494     32.7846     73.7081
     49.25    122.7300     37.5791     71.1806
     49.50    132.2913     40.7373     68.3257
     49.75    141.6069     43.5359     64.5573
     50.00    149.2860     46.7705     60.8557
     50.25    157.5569     52.0312     56.9452
     50.50    168.5846     57.2686     53.5346
     50.75    177.5918     60.5227     50.1050
     51.00    183.7667     62.6289     46.6829
     51.25    187.5405     63.8290     43.4475
     51.50    190.8107     64.3409     39.6458
     51.75    191.9441     64.4879     35.3105
     52.00    191.9508     64.4898     33.2677
     52.25    191.3974     64.4917     34.7562
     52.50    189.8873     64.4079     36.7578
     52.75    187.0302     64.1488     39.1247
     53.00    181.7688     63.3061     38.9345
     53.25    172.4415     60.8983     38.7433
     53.50    158.3117     56.9637     38.5541
     53.75    143.1719     52.5151     40.4575
     54.00    135.1707     47.5757     44.1401
     54.25    132.9116     43.9757     47.6558
     54.50    131.7853     41.5064     51.8705
     54.75    128.3932     38.8648     56.2177
     55.00    118.0147     36.7322     61.8467
     55.25    105.9368     32.5356     66.3289
     55.50     81.5855     24.4275     71.6256
     55.75     69.3188     18.7847     79.2500
     56.00     69.5511     17.0522     87.2694
     56.25     73.7843     18.9437     94.1781
     56.50     80.5163     21.9670    102.1481
     56.75     84.6709     23.8602    104.7034
     57.00     87.4791     23.7115    101.8184
     57.25     86.1640     23.2599     97.2567
     57.50     83.9048     23.0350     93.1964
     57.75     82.2121     23.3844     88.4571
     58.00     81.6645     28.5200     82.2987
     58.25     92.8275     31.0253     80.9983
     58.50    100.1825     31.6178     80.1735
     58.75    102.8516     31.6610     77.8649
     59.00    103.0171     31.5147     74.2912
     59.25    102.0797     30.9875     72.9056
     59.50     99.2540     29.4293     69.3783
     59.75     90.1973     26.6467     65.0896
     60.00     80.1964     23.3711     63.7240
     60.25     72.8391     19.5423     64.3000
     60.50     69.0693     17.1406     68.8312
     60.75     67.1878     16.0077     72.4581
     61.00     64.9286     15.5964     75.4426
     61.25     63.4247     15.5045     75.9449
     61.50     63.0530     16.5647     78.3093
     61.75     63.3146     18.3050     76.6579
     62.00     65.6345     20.9524     77.0925
     62.25     70.4845     23.1463     80.0370
     62.50     79.4130     25.7937     83.1304
     62.75     93.8868     31.0896     84.6656
     63.00    104.9238     43.4069     81.0038
     63.25    118.0284     57.5211     74.2383
     63.50    175.0592     80.1907     68.9339
     63.75    193.0074     90.2929     62.5337
     64.00    214.1792     96.8677     55.5856
     64.25    213.9957    106.0780     51.9250
     64.50    213.8149    110.2754     48.8125
     64.75    213.8216    111.3738     44.2387
     65.00    213.8283    111.2799     42.4047
     65.25    214.0238    109.6935     42.8600
     65.50    214.0305    103.9781     44.2161
     65.75    214.0371     96.3426     42.5471
     66.00    214.0438     86.2263     45.7433
     66.25    211.9735     72.0956     48.4297
     66.50    199.5179     58.9678     50.0049
     66.75    152.5080     47.3435     51.7823
     67.00    121.5479     32.4611     53.1562
     67.25     88.6996     22.5935     53.3220
     67.50     78.3211     20.5354     54.3227
     67.75     77.1949     20.1641     56.2983
     68.00     76.8936     20.0904     61.2156
     68.25     77.2268     20.6035     68.9007
     68.50     78.5049     22.3288     78.5467
     68.75     81.8475     23.2458     85.0710
     69.00     83.5952     23.8806     87.3984
     69.25     85.1905     24.2846     83.3713
     69.50     87.1547     24.4101     82.6332
     69.75     88.0112     24.3075     82.0571
     70.00     87.4514     24.0514     79.5586
     70.25     84.9531     23.4415     74.9875
     70.50     78.2632     21.5488     75.0600
     70.75     70.1285     18.1100     75.1135
     71.00     65.0968     15.8473     71.5637
     71.25     62.7180     14.5270     76.3691
     71.50     62.1895     14.4482     76.3616
     71.75     62.4515     14.4501     78.7234
     72.00     64.5320     14.8350     83.6286
     72.25     67.8558     17.1841     86.8908
     72.50     69.2032     17.5195     88.7316
     72.75     69.2099     17.5567     90.2036
     73.00     69.5188     17.6765     90.5632
     73.25     70.6270     18.0251     90.0075
     73.50     71.6282     18.1408     89.9651
     73.75     71.4555     16.7332     90.2594
     74.00     68.6016     16.1304     91.4947
     74.25     66.0687     16.4346     94.3729
     74.50     65.4240     16.7388     96.6572
     74.75     65.8651     17.6477     97.3779
     75.00     68.5164     20.0683    102.0083
     75.25     74.7542     23.4716    102.5487
     75.50     88.5449     28.8400    102.9065
     75.75     97.2374     36.2493    103.9011
     76.00    105.7411     37.0826    102.5754
     76.25    113.1118     37.1601     98.3215
     76.50    114.4402     37.3887     91.3697
     76.75    117.0904     39.5070     77.2330
     77.00    118.9853     42.4568     70.1823
     77.25    121.4467     42.5342     68.5911
     77.50    127.3069     42.3093     67.6628
     77.75    131.0900     42.2355     63.5705
     78.00    129.2085     42.9934     64.8524
     78.25    128.8375     44.8849     64.4659
     78.50    129.9771     47.6834     60.8859
     78.75    135.2708     54.5636     58.5160
     79.00    145.4739     57.4374     58.0521
     79.25    160.5863     56.7562     60.4732
     79.50    163.8030     53.9645     61.3587
     79.75    164.3761     49.1550     59.7276
     80.00    156.8300     41.8796     57.8381
     80.25    133.7283     38.9283     55.8214
     80.50    126.1787     38.9305     56.3618
     80.75    123.6081     38.9092     57.0534
     81.00    123.4353     38.6591     57.6253
     81.25    123.4265     37.7520     57.8006
     81.50    123.2224     35.5679     58.1582
     81.75    121.9358     32.3156     59.7884
     82.00    115.5446     28.2872     61.9949
     82.25    105.8992     24.9755     65.1533
     82.50     96.2857     21.9992     68.3564
     82.75     86.2753     17.0417     66.4666
     83.00     74.7734     13.2320     65.4186
     83.25     67.3690     11.3050     68.5525
     83.50     60.9966     10.8354     77.7470
     83.75     57.3276     10.9429     88.0897
     84.00     55.1000     11.8458     97.7697
     84.25     54.4134     12.9563    106.1290
     84.50     56.8003     13.2625    109.7754
     84.75     57.6284     13.5688    108.9132
     85.00     58.2110     13.9909    110.7222
     85.25     58.6804     14.5663    115.0659
