~Version Information 
 VERS. 2.0                                         : CWLS Log ASCII Standard - VERSION 2.0
 WRAP. NO                                          : One line per depth step
#
~Well Information Block
#MNEM.UNIT           DATA                          : DESCRIPTION
#----.----          ---------                      : -----------
 STRT.F             0.0000                         : START DEPTH
 STOP.F             303.0000                       : STOP DEPTH
 STEP.F             0.2500                         : STEP LENGTH
 NULL.              -999.2500                      : NO VALUE
 WELL.  1407-E                                     : WELL
 FLD.               CARSTAIRS; D. BUSCHERT         : FIELD
 LOC.               EH-14-030-02W5                 : LOCATION
 PROV.              ALBERTA                        : PROVINCE
 STAT.              CANADA                         : STATE
 SRVC.ALBERTA       ENVIRONMENT                    : SERVICE COMPANY
 DATE.              1975/05/28                     : LOGDATE
 APIN.              442783                         : API NUMBER
 UWI.               EH-14-030-02W5                 : UNIQUE WELL ID
 DLAT.DEG            51.56920                      : Latitude north of equator
 DLON.DEG           114.17175                      : Longitude west of Greenwich
 GDAT.              NAD83                          : Horizontal datum
 EGND.F            3522.9661                       : Ground elevation +- 21.3
 UTMZ.                    11                       : UTM zone
 UTME.M               696001                       : UTM easting
 UTMN.M              5716915                       : UTM northing
 SID3.                442783                       : AENV GWRIS ID
 SNM3.   100EH1403002M500                          : DLS ID
#
~Parameter Information Block
#MNEM.UNIT           DATA                          : DESCRIPTION
#----.----          ---------                      : -----------
 EKB.F              0.0000                         : Kelly bushing
 EGL.F              0.0000                         : Ground level
 EDF.F              0.0000                         : Drilling floor
 EPD.F              0.0000                         : Permanent datum
 TD.F               303.0000                       : Total depth
 DATE.              28-MAY-1975                    : Date Logged [DD-MMM-YYYY]
 DD.F               305                            : Depth driller
 BLI.F              303                            : Bottom log interval
 BS1.IN             4.5                            : Bit size
 BSD1.F             305                            : Depth drilled with bit1
 DFT.               NATURAL                        : Type fluid in hole
 ENGI.              D. WYROSTOCK                   : Recorded By
 ORIG.              5" PRINT                       : Origin of data
 DICO.              Divestco                       : Digitizing Company
#
~Curve Information Block
#MNEM.UNIT             API CODE         Curve Description
#----.----           LG--CV-CL--M     : -----------------
 DEPT.F              00 001 00 00     : DEPTH BELOW REFERENCE
 RES1.OHMM           01 120 00 01     : RESISTIVITY
 RES2.OHMM           01 120 00 01     : RESISTIVITY
 GR.GAPI             30 310 01 01     : GAMMA RAY
#
~A DEPTH       RES1        RES2         GR
# ...
    171.00     62.6040     27.7752     72.4956
    171.25     68.2710     31.4806     69.4125
    171.50     73.7492     35.4127     65.2153
    171.75     75.8285     37.9086     57.1869
    172.00     80.7402     39.7999     52.8755
    172.25     88.6731     40.9353     50.7741
    172.50     96.1062     41.6172     51.2420
    172.75    102.3364     42.3747     52.5706
    173.00    104.5695     43.9636     53.3048
    173.25    105.5455     45.5526     53.5139
    173.50    106.6961     45.7266     54.3617
    173.75    108.9856     45.1782     56.7397
    174.00    111.3480     43.4413     62.7069
    174.25    109.1842     40.4951     70.6911
    174.50    105.5277     35.9616     79.7644
    174.75    100.5875     30.8990     84.3509
    175.00     91.6018     23.4932     87.8540
    175.25     80.0381     21.4540     87.1850
    175.50     72.1897     21.1533     83.8431
    175.75     70.6976     19.0386     86.7149
    176.00     69.9018     15.4121     93.2751
    176.25     67.4310     11.0297    100.5130
    176.50     57.3719      9.7464    103.5836
    176.75     47.3150     11.0330     96.0896
    177.00     43.3944     15.3430     93.8922
    177.25     43.5555     20.8624     92.1425
    177.50     44.9161     22.8293     85.2726
    177.75     47.5619     24.2765     75.7055
    178.00     58.8936     25.4119     70.9966
    178.25     69.0923     25.1467     71.4540
    178.50     73.0652     24.2295     73.2444
    178.75     75.8945     21.2124     74.2862
    179.00     74.4022     18.6158     74.5790
    179.25     69.6634     18.1076     74.5826
    179.50     65.1774     18.2319     74.7973
    179.75     61.0280     18.8382     75.1379
    180.00     59.4317     20.0492     72.7671
    180.25     61.2904     22.2428     71.8530
    180.50     61.9587     24.8900     71.4776
    180.75     64.9286     30.3338     70.7415
    181.00     72.5171     36.3053     66.1700
    181.25     81.9605     45.2074     54.3834
    181.50     93.2921     49.6793     47.6478
    181.75    101.7064     51.1564     40.3589
    182.00    112.0185     51.5816     39.5324
    182.25    117.9333     51.5833     40.4237
    182.50    119.7759     51.5849     41.3151
    182.75    120.7078     51.4957     42.2064
    183.00    121.0631     51.3269     41.9434
    183.25    121.0304     50.8695     41.3367
    183.50    120.5698     49.2318     44.5083
    183.75    119.8015     45.9542     47.4131
    184.00    117.9759     39.0725     50.9808
    184.25    108.9172     28.5630     58.9250
    184.50     88.3069     21.6512     73.6000
    184.75     75.6714     19.0688     82.0695
    185.00     65.0726     19.0242     85.8995
    185.25     59.5283     20.0840     86.0709
    185.50     64.9986     21.3706     82.8467
    185.75     69.4417     22.7328     79.0613
    186.00     72.8946     23.8682     75.4120
    186.25     74.5885     25.2304     73.0412
    186.50     75.4010     25.6196     71.0356
    186.75     74.7884     24.6290     71.5614
    187.00     72.2464     21.2292     74.8146
    187.25     68.0447     18.2760     78.7985
    187.50     63.3265     15.4574     84.5966
    187.75     58.9859     14.0362     87.1863
    188.00     55.5895     13.7465     87.2402
    188.25     53.3259     13.7545     87.2240
    188.50     52.1953     13.7561     85.6160
    188.75     51.6312     13.8334     79.3105
    189.00     50.6894     13.8350     80.3635
    189.25     50.1896     13.7127     82.3995
    189.50     51.4494     13.3305     81.0965
    189.75     52.2070     12.7015     76.9279
    190.00     52.0205     12.3079     82.8371
    190.25     51.0787     12.1046     86.6543
    190.50     49.9481     12.1821     89.7333
    190.75     49.0063     12.2117     92.2078
    191.00     48.2487     12.2610     97.0379
    191.25     47.6795     12.2945     98.3200
    191.50     47.2841     12.3399     99.7848
    191.75     46.9187     12.3415    100.0684
    192.00     46.7271     12.3432     97.9819
    192.25     46.5656     12.3448    101.0118
    192.50     46.5682     12.3465    104.5023
    192.75     46.5705     12.3481    103.4558
    193.00     46.5729     12.3501     98.5285
    193.25     46.5752     12.3517     99.2750
    193.50     46.5776     12.3534    100.1851
    193.75     46.5800     12.3550    102.3135
    194.00     46.5162     12.3832    107.9184
    194.25     46.3954     12.5094    110.1702
    194.50     46.2089     12.5396    109.1434
    194.75     46.2932     12.6639    103.7223
    195.00     46.8671     12.6655     99.3791
    195.25     47.4411     12.8183     97.4283
    195.50     47.9230     12.8955     97.7059
    195.75     48.2113     12.9727     99.6411
    196.00     48.4894     13.1255     99.3030
    196.25     48.4918     13.2028     95.4704
    196.50     48.4946     13.2800     92.9169
    196.75     48.6857     13.4328     95.1215
    197.00     48.8769     13.5116     96.0292
    197.25     49.2569     13.6664     93.2132
    197.50     49.8257     13.8157     90.5575
    197.75     50.3945     13.8929     88.9173
    198.00     50.7744     13.8946     89.6146
    198.25     51.3432     13.8848     90.3794
    198.50     51.3455     13.4530     90.1270
    198.75     51.3479     12.3701     89.1065
    199.00     51.5390     10.4951     86.1950
    199.25     51.7761      9.1184     92.5913
    199.50     48.1453      8.1174     92.0482
    199.75     44.1824      7.8128     94.8924
    200.00     41.3946      7.5294    101.9178
    200.25     37.5777      7.3541    104.6663
    200.50     36.4466      7.1838    107.5962
    200.75     36.0706      7.2611    116.3709
    201.00     36.2615      7.3383    124.4150
    201.25     36.2634      7.3624    132.6417
    201.50     36.0765      7.5197    132.9315
    201.75     36.0783      7.8596    130.5534
    202.00     36.0802      8.6981    122.6791
    202.25     36.0820     10.1188    107.8037
    202.50     36.4616     13.3921     99.7770
    202.75     39.4846     21.8133     90.9181
    203.00     42.5076     29.8379     81.3637
    203.25     45.1530     31.1621     75.0102
    203.50     50.5544     31.1031     69.6971
    203.75     70.6161     29.7943     64.3379
    204.00     82.7341     27.1252     64.7806
    204.25     81.0869     21.5933     66.2494
    204.50     78.1307     17.4813     67.7181
    204.75     71.9818     15.2726     70.2827
    205.00     63.9852     13.5626     77.5962
    205.25     56.9712     12.8083     88.0147
    205.50     52.2067     12.2052     94.9628
    205.75     49.3841     11.6021     98.6234
    206.00     47.1879     10.9235    100.8227
    206.25     45.3880     10.5471    101.5608
    206.50     43.9942     10.7942    102.1163
    206.75     42.7845     11.4402    102.6718
    207.00     42.1598     12.2525    101.9487
    207.25     42.1620     13.8351     99.0339
    207.50     42.8563     15.8756     97.5802
    207.75     45.6212     18.5215     92.2910
    208.00     53.0817     23.5593     89.7414
    208.25     59.1446     29.6834     87.5572
    208.50     64.3990     37.0924     78.9802
    208.75     69.8671     44.2746     72.1688
    209.00     79.6942     48.6602     66.1918
    209.25     92.5452     51.7608     65.2755
    209.50    105.8123     54.9370     63.5363
    209.75    113.5558     57.8864     58.8248
    210.00    120.7329     59.0218     52.8868
    210.25    123.7560     58.9478     50.1908
    210.50    125.0796     58.4203     46.8944
    210.75    125.4591     55.0961     48.4875
    211.00    125.2721     47.3124     51.3871
    211.25    123.7634     42.6218     53.7900
    211.50    120.3665     41.2607     55.1121
    211.75    114.1372     40.9680     60.4410
    212.00    105.4533     41.1208     66.3378
    212.25    101.6787     41.1036     69.2577
    212.50     99.9812     40.2387     69.9696
    212.75     99.4166     36.1208     69.9772
    213.00     98.6632     35.8302     69.8008
    213.25     97.1545     37.2835     70.1253
    213.50     94.8653     45.3637     70.8706
